$GPRMC,000012.00,A,3031.9000425,N,11421.4368798,E,0.01,0.00,010525,0.0,E,A*37
$GPGGA,000012.00,3031.9000425,N,11421.4368798,E,1,08,1.0,42.636,M,-13.987,M,0.0,*57
$GPRMC,000042.00,A,3031.8994888,N,11421.4369982,E,0.01,0.00,010525,0.0,E,A*38
$GPGGA,000042.00,3031.8994888,N,11421.4369982,E,1,08,1.0,44.391,M,-13.987,M,0.0,*56
$GPRMC,000112.00,A,3031.8998777,N,11421.4366786,E,0.01,0.00,010525,0.0,E,A*3A
$GPGGA,000112.00,3031.8998777,N,11421.4366786,E,1,08,1.0,42.811,M,-13.987,M,0.0,*51
$GPRMC,000142.00,A,3031.9001108,N,11421.4370396,E,0.01,0.00,010525,0.0,E,A*3B
$GPGGA,000142.00,3031.9001108,N,11421.4370396,E,1,08,1.0,42.890,M,-13.987,M,0.0,*59
$GPRMC,000212.00,A,3031.9001063,N,11421.4369116,E,0.02,0.00,010525,0.0,E,A*30
$GPGGA,000212.00,3031.9001063,N,11421.4369116,E,1,08,1.0,41.588,M,-13.987,M,0.0,*56
$GPRMC,000242.00,A,3031.9000539,N,11421.4367001,E,0.02,0.00,010525,0.0,E,A*37
$GPGGA,000242.00,3031.9000539,N,11421.4367001,E,1,08,1.0,42.237,M,-13.987,M,0.0,*51
$GPRMC,000312.00,A,3031.9002449,N,11421.4370749,E,0.01,0.00,010525,0.0,E,A*39
$GPGGA,000312.00,3031.9002449,N,11421.4370749,E,1,08,1.0,42.233,M,-13.987,M,0.0,*58
$GPRMC,000342.00,A,3031.9002336,N,11421.4372299,E,0.02,0.00,010525,0.0,E,A*3A
$GPGGA,000342.00,3031.9002336,N,11421.4372299,E,1,08,1.0,41.948,M,-13.987,M,0.0,*5C
$GPRMC,000412.00,A,3031.9000799,N,11421.4370467,E,0.01,0.00,010525,0.0,E,A*3D
$GPGGA,000412.00,3031.9000799,N,11421.4370467,E,1,08,1.0,42.542,M,-13.987,M,0.0,*5D
$GPRMC,000442.00,A,3031.9001748,N,11421.4372386,E,0.02,0.00,010525,0.0,E,A*3C
$GPGGA,000442.00,3031.9001748,N,11421.4372386,E,1,08,1.0,42.209,M,-13.987,M,0.0,*57
$GPRMC,000512.00,A,3031.8998505,N,11421.4372021,E,0.01,0.00,010525,0.0,E,A*36
$GPGGA,000512.00,3031.8998505,N,11421.4372021,E,1,08,1.0,41.464,M,-13.987,M,0.0,*50
$GPRMC,000542.00,A,3031.8996835,N,11421.4373117,E,0.01,0.00,010525,0.0,E,A*36
$GPGGA,000542.00,3031.8996835,N,11421.4373117,E,1,08,1.0,42.173,M,-13.987,M,0.0,*50
$GPRMC,000612.00,A,3031.8997348,N,11421.4374156,E,0.02,0.00,010525,0.0,E,A*31
$GPGGA,000612.00,3031.8997348,N,11421.4374156,E,1,08,1.0,41.919,M,-13.987,M,0.0,*53
$GPRMC,000642.00,A,3031.8998140,N,11421.4371590,E,0.01,0.00,010525,0.0,E,A*39
$GPGGA,000642.00,3031.8998140,N,11421.4371590,E,1,08,1.0,42.527,M,-13.987,M,0.0,*5A
$GPRMC,000712.00,A,3031.8998516,N,11421.4369677,E,0.01,0.00,010525,0.0,E,A*39
$GPGGA,000712.00,3031.8998516,N,11421.4369677,E,1,08,1.0,41.947,M,-13.987,M,0.0,*53
$GPRMC,000742.00,A,3031.8999935,N,11421.4369617,E,0.01,0.00,010525,0.0,E,A*36
$GPGGA,000742.00,3031.8999935,N,11421.4369617,E,1,08,1.0,40.716,M,-13.987,M,0.0,*57
$GPRMC,000812.00,A,3031.8999508,N,11421.4371384,E,0.01,0.00,010525,0.0,E,A*38
$GPGGA,000812.00,3031.8999508,N,11421.4371384,E,1,08,1.0,41.142,M,-13.987,M,0.0,*5F
$GPRMC,000842.00,A,3031.8999798,N,11421.4370172,E,0.01,0.00,010525,0.0,E,A*3C
$GPGGA,000842.00,3031.8999798,N,11421.4370172,E,1,08,1.0,41.272,M,-13.987,M,0.0,*5B
$GPRMC,000912.00,A,3031.8997571,N,11421.4371561,E,0.02,0.00,010525,0.0,E,A*37
$GPGGA,000912.00,3031.8997571,N,11421.4371561,E,1,08,1.0,42.534,M,-13.987,M,0.0,*55
$GPRMC,000942.00,A,3031.8999630,N,11421.4372259,E,0.01,0.00,010525,0.0,E,A*36
$GPGGA,000942.00,3031.8999630,N,11421.4372259,E,1,08,1.0,42.268,M,-13.987,M,0.0,*59
$GPRMC,001012.00,A,3031.9000158,N,11421.4372404,E,0.04,0.00,010525,0.0,E,A*31
$GPGGA,001012.00,3031.9000158,N,11421.4372404,E,1,08,1.0,41.690,M,-13.987,M,0.0,*5B
$GPRMC,001042.00,A,3031.9000079,N,11421.4371225,E,0.02,0.00,010525,0.0,E,A*36
$GPGGA,001042.00,3031.9000079,N,11421.4371225,E,1,08,1.0,42.531,M,-13.987,M,0.0,*51
$GPRMC,001112.00,A,3031.8998656,N,11421.4371810,E,0.02,0.00,010525,0.0,E,A*3C
$GPGGA,001112.00,3031.8998656,N,11421.4371810,E,1,08,1.0,40.943,M,-13.987,M,0.0,*50
$GPRMC,001142.00,A,3031.8996530,N,11421.4371275,E,0.02,0.00,010525,0.0,E,A*3D
$GPGGA,001142.00,3031.8996530,N,11421.4371275,E,1,08,1.0,41.425,M,-13.987,M,0.0,*5D
$GPRMC,001212.00,A,3031.8999550,N,11421.4374527,E,0.03,0.00,010525,0.0,E,A*36
$GPGGA,001212.00,3031.8999550,N,11421.4374527,E,1,08,1.0,41.169,M,-13.987,M,0.0,*5A
$GPRMC,001242.00,A,3031.8999327,N,11421.4373784,E,0.00,0.00,010525,0.0,E,A*3A
$GPGGA,001242.00,3031.8999327,N,11421.4373784,E,1,08,1.0,41.144,M,-13.987,M,0.0,*5A
$GPRMC,001312.00,A,3031.8996348,N,11421.4371626,E,0.02,0.00,010525,0.0,E,A*31
$GPGGA,001312.00,3031.8996348,N,11421.4371626,E,1,08,1.0,41.525,M,-13.987,M,0.0,*50
$GPRMC,001342.00,A,3031.8993864,N,11421.4369021,E,0.03,0.00,010525,0.0,E,A*3D
$GPGGA,001342.00,3031.8993864,N,11421.4369021,E,1,08,1.0,42.617,M,-13.987,M,0.0,*5C
$GPRMC,001412.00,A,3031.8993767,N,11421.4370385,E,0.01,0.00,010525,0.0,E,A*34
$GPGGA,001412.00,3031.8993767,N,11421.4370385,E,1,08,1.0,42.823,M,-13.987,M,0.0,*5E
$GPRMC,001442.00,A,3031.8995207,N,11421.4371284,E,0.01,0.00,010525,0.0,E,A*35
$GPGGA,001442.00,3031.8995207,N,11421.4371284,E,1,08,1.0,43.106,M,-13.987,M,0.0,*50
$GPRMC,001512.00,A,3031.8993887,N,11421.4372499,E,0.01,0.00,010525,0.0,E,A*3C
$GPGGA,001512.00,3031.8993887,N,11421.4372499,E,1,08,1.0,42.565,M,-13.987,M,0.0,*59
$GPRMC,001542.00,A,3031.8993706,N,11421.4370695,E,0.01,0.00,010525,0.0,E,A*33
$GPGGA,001542.00,3031.8993706,N,11421.4370695,E,1,08,1.0,42.433,M,-13.987,M,0.0,*54
$GPRMC,001612.00,A,3031.8996997,N,11421.4372774,E,0.02,0.00,010525,0.0,E,A*39
$GPGGA,001612.00,3031.8996997,N,11421.4372774,E,1,08,1.0,41.462,M,-13.987,M,0.0,*5A
$GPRMC,001642.00,A,3031.9000182,N,11421.4370523,E,0.01,0.00,010525,0.0,E,A*36
$GPGGA,001642.00,3031.9000182,N,11421.4370523,E,1,08,1.0,41.037,M,-13.987,M,0.0,*52
$GPRMC,001712.00,A,3031.8999835,N,11421.4372099,E,0.01,0.00,010525,0.0,E,A*39
$GPGGA,001712.00,3031.8999835,N,11421.4372099,E,1,08,1.0,41.310,M,-13.987,M,0.0,*5B
$GPRMC,001742.00,A,3031.8999221,N,11421.4368971,E,0.01,0.00,010525,0.0,E,A*37
$GPGGA,001742.00,3031.8999221,N,11421.4368971,E,1,08,1.0,41.830,M,-13.987,M,0.0,*5C
$GPRMC,001812.00,A,3031.8997283,N,11421.4375987,E,0.01,0.00,010525,0.0,E,A*3E
$GPGGA,001812.00,3031.8997283,N,11421.4375987,E,1,08,1.0,40.088,M,-13.987,M,0.0,*5F
$GPRMC,001842.00,A,3031.8997203,N,11421.4372249,E,0.01,0.00,010525,0.0,E,A*3D
$GPGGA,001842.00,3031.8997203,N,11421.4372249,E,1,08,1.0,41.975,M,-13.987,M,0.0,*56
$GPRMC,001912.00,A,3031.8999708,N,11421.4371082,E,0.01,0.00,010525,0.0,E,A*3F
$GPGGA,001912.00,3031.8999708,N,11421.4371082,E,1,08,1.0,42.175,M,-13.987,M,0.0,*5F
$GPRMC,001942.00,A,3031.8997977,N,11421.4370180,E,0.01,0.00,010525,0.0,E,A*30
$GPGGA,001942.00,3031.8997977,N,11421.4370180,E,1,08,1.0,41.029,M,-13.987,M,0.0,*5B
$GPRMC,002012.00,A,3031.8996098,N,11421.4369325,E,0.01,0.00,010525,0.0,E,A*33
$GPGGA,002012.00,3031.8996098,N,11421.4369325,E,1,08,1.0,42.814,M,-13.987,M,0.0,*5D
$GPRMC,002042.00,A,3031.9000422,N,11421.4369968,E,0.01,0.00,010525,0.0,E,A*37
$GPGGA,002042.00,3031.9000422,N,11421.4369968,E,1,08,1.0,41.103,M,-13.987,M,0.0,*55
$GPRMC,002112.00,A,3031.8997488,N,11421.4370748,E,0.01,0.00,010525,0.0,E,A*31
$GPGGA,002112.00,3031.8997488,N,11421.4370748,E,1,08,1.0,41.090,M,-13.987,M,0.0,*58
$GPRMC,002142.00,A,3031.8998728,N,11421.4371413,E,0.02,0.00,010525,0.0,E,A*3D
$GPGGA,002142.00,3031.8998728,N,11421.4371413,E,1,08,1.0,41.722,M,-13.987,M,0.0,*59
$GPRMC,002212.00,A,3031.8999956,N,11421.4372752,E,0.01,0.00,010525,0.0,E,A*3B
$GPGGA,002212.00,3031.8999956,N,11421.4372752,E,1,08,1.0,40.191,M,-13.987,M,0.0,*53
$GPRMC,002242.00,A,3031.8997915,N,11421.4376720,E,0.00,0.00,010525,0.0,E,A*37
$GPGGA,002242.00,3031.8997915,N,11421.4376720,E,1,08,1.0,41.219,M,-13.987,M,0.0,*5C
$GPRMC,002312.00,A,3031.8997623,N,11421.4374048,E,0.01,0.00,010525,0.0,E,A*33
$GPGGA,002312.00,3031.8997623,N,11421.4374048,E,1,08,1.0,41.446,M,-13.987,M,0.0,*55
$GPRMC,002342.00,A,3031.8999294,N,11421.4372436,E,0.02,0.00,010525,0.0,E,A*38
$GPGGA,002342.00,3031.8999294,N,11421.4372436,E,1,08,1.0,40.361,M,-13.987,M,0.0,*5E
$GPRMC,002412.00,A,3031.8997016,N,11421.4367634,E,0.02,0.00,010525,0.0,E,A*38
$GPGGA,002412.00,3031.8997016,N,11421.4367634,E,1,08,1.0,42.964,M,-13.987,M,0.0,*53
$GPRMC,002442.00,A,3031.8996253,N,11421.4368600,E,0.01,0.00,010525,0.0,E,A*34
$GPGGA,002442.00,3031.8996253,N,11421.4368600,E,1,08,1.0,43.033,M,-13.987,M,0.0,*56
$GPRMC,002512.00,A,3031.8997000,N,11421.4374180,E,0.01,0.00,010525,0.0,E,A*37
$GPGGA,002512.00,3031.8997000,N,11421.4374180,E,1,08,1.0,41.509,M,-13.987,M,0.0,*5B
$GPRMC,002542.00,A,3031.9000335,N,11421.4371405,E,0.01,0.00,010525,0.0,E,A*3C
$GPGGA,002542.00,3031.9000335,N,11421.4371405,E,1,08,1.0,40.552,M,-13.987,M,0.0,*5F
$GPRMC,002612.00,A,3031.8997973,N,11421.4366158,E,0.01,0.00,010525,0.0,E,A*3F
$GPGGA,002612.00,3031.8997973,N,11421.4366158,E,1,08,1.0,41.744,M,-13.987,M,0.0,*58
$GPRMC,002642.00,A,3031.9000114,N,11421.4366434,E,0.01,0.00,010525,0.0,E,A*3A
$GPGGA,002642.00,3031.9000114,N,11421.4366434,E,1,07,1.0,42.735,M,-13.987,M,0.0,*57
$GPRMC,002712.00,A,3031.9000285,N,11421.4366054,E,0.03,0.00,010525,0.0,E,A*35
$GPGGA,002712.00,3031.9000285,N,11421.4366054,E,1,07,1.0,43.752,M,-13.987,M,0.0,*5A
$GPRMC,002742.00,A,3031.9003369,N,11421.4363913,E,0.02,0.00,010525,0.0,E,A*3E
$GPGGA,002742.00,3031.9003369,N,11421.4363913,E,1,07,1.0,41.657,M,-13.987,M,0.0,*56
$GPRMC,002812.00,A,3031.8999938,N,11421.4359094,E,0.03,0.00,010525,0.0,E,A*3F
$GPGGA,002812.00,3031.8999938,N,11421.4359094,E,1,07,1.0,42.925,M,-13.987,M,0.0,*5F
$GPRMC,002842.00,A,3031.9001010,N,11421.4361975,E,0.02,0.00,010525,0.0,E,A*3C
$GPGGA,002842.00,3031.9001010,N,11421.4361975,E,1,07,1.0,43.907,M,-13.987,M,0.0,*5C
$GPRMC,002912.00,A,3031.8998228,N,11421.4365693,E,0.01,0.00,010525,0.0,E,A*39
$GPGGA,002912.00,3031.8998228,N,11421.4365693,E,1,07,1.0,43.876,M,-13.987,M,0.0,*5D
$GPRMC,002942.00,A,3031.8998532,N,11421.4361307,E,0.01,0.00,010525,0.0,E,A*3C
$GPGGA,002942.00,3031.8998532,N,11421.4361307,E,1,07,1.0,44.403,M,-13.987,M,0.0,*51
$GPRMC,003012.00,A,3031.8998082,N,11421.4364570,E,0.01,0.00,010525,0.0,E,A*3C
$GPGGA,003012.00,3031.8998082,N,11421.4364570,E,1,07,1.0,43.617,M,-13.987,M,0.0,*51
$GPRMC,003042.00,A,3031.8998105,N,11421.4366549,E,0.01,0.00,010525,0.0,E,A*3F
$GPGGA,003042.00,3031.8998105,N,11421.4366549,E,1,07,1.0,43.945,M,-13.987,M,0.0,*5A
$GPRMC,003112.00,A,3031.9000647,N,11421.4364582,E,0.01,0.00,010525,0.0,E,A*36
$GPGGA,003112.00,3031.9000647,N,11421.4364582,E,1,07,1.0,44.185,M,-13.987,M,0.0,*50
$GPRMC,003142.00,A,3031.8999645,N,11421.4364322,E,0.02,0.00,010525,0.0,E,A*36
$GPGGA,003142.00,3031.8999645,N,11421.4364322,E,1,07,1.0,43.593,M,-13.987,M,0.0,*57
$GPRMC,003212.00,A,3031.8996160,N,11421.4366712,E,0.02,0.00,010525,0.0,E,A*3A
$GPGGA,003212.00,3031.8996160,N,11421.4366712,E,1,07,1.0,45.299,M,-13.987,M,0.0,*50
$GPRMC,003242.00,A,3031.8996496,N,11421.4366681,E,0.02,0.00,010525,0.0,E,A*38
$GPGGA,003242.00,3031.8996496,N,11421.4366681,E,1,07,1.0,44.133,M,-13.987,M,0.0,*50
$GPRMC,003312.00,A,3031.8998216,N,11421.4365073,E,0.01,0.00,010525,0.0,E,A*37
$GPGGA,003312.00,3031.8998216,N,11421.4365073,E,1,07,1.0,43.892,M,-13.987,M,0.0,*59
$GPRMC,003342.00,A,3031.8998961,N,11421.4365550,E,0.02,0.00,010525,0.0,E,A*3E
$GPGGA,003342.00,3031.8998961,N,11421.4365550,E,1,07,1.0,43.378,M,-13.987,M,0.0,*5C
$GPRMC,003412.00,A,3031.8998012,N,11421.4363346,E,0.01,0.00,010525,0.0,E,A*35
$GPGGA,003412.00,3031.8998012,N,11421.4363346,E,1,07,1.0,43.337,M,-13.987,M,0.0,*5F
$GPRMC,003442.00,A,3031.8998038,N,11421.4366434,E,0.02,0.00,010525,0.0,E,A*3C
$GPGGA,003442.00,3031.8998038,N,11421.4366434,E,1,07,1.0,43.078,M,-13.987,M,0.0,*5D
$GPRMC,003512.00,A,3031.8998042,N,11421.4364947,E,0.01,0.00,010525,0.0,E,A*3D
$GPGGA,003512.00,3031.8998042,N,11421.4364947,E,1,07,1.0,43.796,M,-13.987,M,0.0,*58
$GPRMC,003542.00,A,3031.8998831,N,11421.4365118,E,0.01,0.00,010525,0.0,E,A*37
$GPGGA,003542.00,3031.8998831,N,11421.4365118,E,1,07,1.0,41.598,M,-13.987,M,0.0,*5C
$GPRMC,003612.00,A,3031.8998389,N,11421.4363571,E,0.01,0.00,010525,0.0,E,A*34
$GPGGA,003612.00,3031.8998389,N,11421.4363571,E,1,07,1.0,42.294,M,-13.987,M,0.0,*57
$GPRMC,003642.00,A,3031.8998191,N,11421.4368690,E,0.01,0.00,010525,0.0,E,A*3D
$GPGGA,003642.00,3031.8998191,N,11421.4368690,E,1,07,1.0,41.598,M,-13.987,M,0.0,*56
$GPRMC,003712.00,A,3031.8998243,N,11421.4364099,E,0.01,0.00,010525,0.0,E,A*36
$GPGGA,003712.00,3031.8998243,N,11421.4364099,E,1,07,1.0,42.857,M,-13.987,M,0.0,*50
$GPRMC,003742.00,A,3031.8999295,N,11421.4364457,E,0.01,0.00,010525,0.0,E,A*3F
$GPGGA,003742.00,3031.8999295,N,11421.4364457,E,1,07,1.0,42.338,M,-13.987,M,0.0,*5B
$GPRMC,003812.00,A,3031.9000748,N,11421.4367335,E,0.01,0.00,010525,0.0,E,A*38
$GPGGA,003812.00,3031.9000748,N,11421.4367335,E,1,07,1.0,41.223,M,-13.987,M,0.0,*54
$GPRMC,003842.00,A,3031.9000383,N,11421.4365652,E,0.01,0.00,010525,0.0,E,A*38
$GPGGA,003842.00,3031.9000383,N,11421.4365652,E,1,07,1.0,42.626,M,-13.987,M,0.0,*56
$GPRMC,003912.00,A,3031.8999775,N,11421.4366990,E,0.01,0.00,010525,0.0,E,A*3B
$GPGGA,003912.00,3031.8999775,N,11421.4366990,E,1,07,1.0,41.457,M,-13.987,M,0.0,*52
$GPRMC,003942.00,A,3031.8995643,N,11421.4366323,E,0.01,0.00,010525,0.0,E,A*34
$GPGGA,003942.00,3031.8995643,N,11421.4366323,E,1,07,1.0,42.911,M,-13.987,M,0.0,*51
$GPRMC,004012.00,A,3031.8997253,N,11421.4364909,E,0.02,0.00,010525,0.0,E,A*3B
$GPGGA,004012.00,3031.8997253,N,11421.4364909,E,1,07,1.0,41.753,M,-13.987,M,0.0,*56
$GPRMC,004042.00,A,3031.8994243,N,11421.4366207,E,0.01,0.00,010525,0.0,E,A*38
$GPGGA,004042.00,3031.8994243,N,11421.4366207,E,1,07,1.0,42.905,M,-13.987,M,0.0,*58
$GPRMC,004112.00,A,3031.8993943,N,11421.4368322,E,0.01,0.00,010525,0.0,E,A*38
$GPGGA,004112.00,3031.8993943,N,11421.4368322,E,1,07,1.0,44.340,M,-13.987,M,0.0,*55
$GPRMC,004142.00,A,3031.8998179,N,11421.4367121,E,0.01,0.00,010525,0.0,E,A*39
$GPGGA,004142.00,3031.8998179,N,11421.4367121,E,1,07,1.0,43.244,M,-13.987,M,0.0,*56
$GPRMC,004212.00,A,3031.8995410,N,11421.4367304,E,0.04,0.00,010525,0.0,E,A*38
$GPGGA,004212.00,3031.8995410,N,11421.4367304,E,1,07,1.0,43.947,M,-13.987,M,0.0,*5A
$GPRMC,004242.00,A,3031.8996976,N,11421.4365371,E,0.01,0.00,010525,0.0,E,A*36
$GPGGA,004242.00,3031.8996976,N,11421.4365371,E,1,07,1.0,43.867,M,-13.987,M,0.0,*52
$GPRMC,004312.00,A,3031.8997772,N,11421.4366714,E,0.01,0.00,010525,0.0,E,A*3D
$GPGGA,004312.00,3031.8997772,N,11421.4366714,E,1,07,1.0,42.928,M,-13.987,M,0.0,*52
$GPRMC,004342.00,A,3031.8998050,N,11421.4366296,E,0.01,0.00,010525,0.0,E,A*3F
$GPGGA,004342.00,3031.8998050,N,11421.4366296,E,1,07,1.0,43.687,M,-13.987,M,0.0,*5B
$GPRMC,004412.00,A,3031.8997157,N,11421.4364794,E,0.01,0.00,010525,0.0,E,A*31
$GPGGA,004412.00,3031.8997157,N,11421.4364794,E,1,07,1.0,42.985,M,-13.987,M,0.0,*59
$GPRMC,004442.00,A,3031.8996141,N,11421.4366196,E,0.01,0.00,010525,0.0,E,A*34
$GPGGA,004442.00,3031.8996141,N,11421.4366196,E,1,07,1.0,43.595,M,-13.987,M,0.0,*50
$GPRMC,004512.00,A,3031.8996300,N,11421.4365209,E,0.02,0.00,010525,0.0,E,A*32
$GPGGA,004512.00,3031.8996300,N,11421.4365209,E,1,07,1.0,44.680,M,-13.987,M,0.0,*55
$GPRMC,004542.00,A,3031.8993287,N,11421.4366171,E,0.01,0.00,010525,0.0,E,A*30
$GPGGA,004542.00,3031.8993287,N,11421.4366171,E,1,07,1.0,44.852,M,-13.987,M,0.0,*55
$GPRMC,004612.00,A,3031.8997788,N,11421.4364952,E,0.03,0.00,010525,0.0,E,A*31
$GPGGA,004612.00,3031.8997788,N,11421.4364952,E,1,07,1.0,43.971,M,-13.987,M,0.0,*51
$GPRMC,004642.00,A,3031.8998740,N,11421.4364350,E,0.01,0.00,010525,0.0,E,A*35
$GPGGA,004642.00,3031.8998740,N,11421.4364350,E,1,07,1.0,43.616,M,-13.987,M,0.0,*59
$GPRMC,004712.00,A,3031.8996921,N,11421.4365350,E,0.01,0.00,010525,0.0,E,A*37
$GPGGA,004712.00,3031.8996921,N,11421.4365350,E,1,07,1.0,43.493,M,-13.987,M,0.0,*54
$GPRMC,004742.00,A,3031.8994279,N,11421.4366646,E,0.01,0.00,010525,0.0,E,A*37
$GPGGA,004742.00,3031.8994279,N,11421.4366646,E,1,07,1.0,44.380,M,-13.987,M,0.0,*56
$GPRMC,004812.00,A,3031.8998953,N,11421.4362046,E,0.01,0.00,010525,0.0,E,A*30
$GPGGA,004812.00,3031.8998953,N,11421.4362046,E,1,07,1.0,44.251,M,-13.987,M,0.0,*5C
$GPRMC,004842.00,A,3031.8999281,N,11421.4364195,E,0.01,0.00,010525,0.0,E,A*39
$GPGGA,004842.00,3031.8999281,N,11421.4364195,E,1,07,1.0,43.806,M,-13.987,M,0.0,*5A
$GPRMC,004912.00,A,3031.8997902,N,11421.4365272,E,0.03,0.00,010525,0.0,E,A*3A
$GPGGA,004912.00,3031.8997902,N,11421.4365272,E,1,07,1.0,43.571,M,-13.987,M,0.0,*56
$GPRMC,004942.00,A,3031.8998525,N,11421.4367016,E,0.04,0.00,010525,0.0,E,A*3C
$GPGGA,004942.00,3031.8998525,N,11421.4367016,E,1,07,1.0,41.956,M,-13.987,M,0.0,*5C
$GPRMC,005012.00,A,3031.8998584,N,11421.4366044,E,0.01,0.00,010525,0.0,E,A*39
$GPGGA,005012.00,3031.8998584,N,11421.4366044,E,1,07,1.0,42.897,M,-13.987,M,0.0,*53
$GPRMC,005042.00,A,3031.8999215,N,11421.4364780,E,0.24,0.00,010525,0.0,E,A*38
$GPGGA,005042.00,3031.8999215,N,11421.4364780,E,1,08,1.0,43.917,M,-13.987,M,0.0,*52
$GPRMC,005112.00,A,3031.8995927,N,11421.4364146,E,0.11,0.00,010525,0.0,E,A*30
$GPGGA,005112.00,3031.8995927,N,11421.4364146,E,1,08,1.0,45.403,M,-13.987,M,0.0,*52
$GPRMC,005142.00,A,3031.8998658,N,11421.4363190,E,0.03,0.00,010525,0.0,E,A*30
$GPGGA,005142.00,3031.8998658,N,11421.4363190,E,1,08,1.0,44.223,M,-13.987,M,0.0,*54
$GPRMC,005212.00,A,3031.8997431,N,11421.4366675,E,0.03,0.00,010525,0.0,E,A*3D
$GPGGA,005212.00,3031.8997431,N,11421.4366675,E,1,08,1.0,44.804,M,-13.987,M,0.0,*56
$GPRMC,005242.00,A,3031.8998193,N,11421.4366309,E,0.02,0.00,010525,0.0,E,A*35
$GPGGA,005242.00,3031.8998193,N,11421.4366309,E,1,08,1.0,43.566,M,-13.987,M,0.0,*51
$GPRMC,005312.00,A,3031.9000537,N,11421.4366990,E,0.02,0.00,010525,0.0,E,A*38
$GPGGA,005312.00,3031.9000537,N,11421.4366990,E,1,08,1.0,43.410,M,-13.987,M,0.0,*5C
$GPRMC,005342.00,A,3031.8995353,N,11421.4368722,E,0.03,0.00,010525,0.0,E,A*35
$GPGGA,005342.00,3031.8995353,N,11421.4368722,E,1,08,1.0,44.158,M,-13.987,M,0.0,*5E
$GPRMC,005412.00,A,3031.8996870,N,11421.4366470,E,0.04,0.00,010525,0.0,E,A*33
$GPGGA,005412.00,3031.8996870,N,11421.4366470,E,1,08,1.0,43.919,M,-13.987,M,0.0,*55
$GPRMC,005442.00,A,3031.8996928,N,11421.4363878,E,0.04,0.00,010525,0.0,E,A*3B
$GPGGA,005442.00,3031.8996928,N,11421.4363878,E,1,08,1.0,43.782,M,-13.987,M,0.0,*51
$GPRMC,005512.00,A,3031.8997129,N,11421.4363900,E,0.02,0.00,010525,0.0,E,A*3F
$GPGGA,005512.00,3031.8997129,N,11421.4363900,E,1,08,1.0,44.260,M,-13.987,M,0.0,*5D
$GPRMC,005542.00,A,3031.8997902,N,11421.4365700,E,0.05,0.00,010525,0.0,E,A*34
$GPGGA,005542.00,3031.8997902,N,11421.4365700,E,1,08,1.0,43.652,M,-13.987,M,0.0,*53
$GPRMC,005612.00,A,3031.8995928,N,11421.4364434,E,0.02,0.00,010525,0.0,E,A*3A
$GPGGA,005612.00,3031.8995928,N,11421.4364434,E,1,08,1.0,44.445,M,-13.987,M,0.0,*59
$GPRMC,005642.00,A,3031.8998568,N,11421.4365013,E,0.03,0.00,010525,0.0,E,A*3B
$GPGGA,005642.00,3031.8998568,N,11421.4365013,E,1,08,1.0,43.830,M,-13.987,M,0.0,*50
$GPRMC,005712.00,A,3031.9000312,N,11421.4365727,E,0.02,0.00,010525,0.0,E,A*3C
$GPGGA,005712.00,3031.9000312,N,11421.4365727,E,1,08,1.0,43.791,M,-13.987,M,0.0,*52
$GPRMC,005742.00,A,3031.8996909,N,11421.4365845,E,0.02,0.00,010525,0.0,E,A*35
$GPGGA,005742.00,3031.8996909,N,11421.4365845,E,1,08,1.0,43.519,M,-13.987,M,0.0,*59
$GPRMC,005812.00,A,3031.8997828,N,11421.4365447,E,0.02,0.00,010525,0.0,E,A*32
$GPGGA,005812.00,3031.8997828,N,11421.4365447,E,1,08,1.0,44.856,M,-13.987,M,0.0,*5F
$GPRMC,005842.00,A,3031.8997836,N,11421.4363256,E,0.02,0.00,010525,0.0,E,A*38
$GPGGA,005842.00,3031.8997836,N,11421.4363256,E,1,08,1.0,43.525,M,-13.987,M,0.0,*5B
$GPRMC,005912.00,A,3031.8997691,N,11421.4363578,E,0.02,0.00,010525,0.0,E,A*34
$GPGGA,005912.00,3031.8997691,N,11421.4363578,E,1,08,1.0,43.758,M,-13.987,M,0.0,*5F
$GPRMC,005942.00,A,3031.8998874,N,11421.4358475,E,0.02,0.00,010525,0.0,E,A*3F
$GPGGA,005942.00,3031.8998874,N,11421.4358475,E,1,08,1.0,43.989,M,-13.987,M,0.0,*56
$GPRMC,010012.00,A,3031.8997902,N,11421.4363541,E,0.02,0.00,010525,0.0,E,A*36
$GPGGA,010012.00,3031.8997902,N,11421.4363541,E,1,08,1.0,44.140,M,-13.987,M,0.0,*55
$GPRMC,010042.00,A,3031.9000574,N,11421.4363998,E,0.02,0.00,010525,0.0,E,A*30
$GPGGA,010042.00,3031.9000574,N,11421.4363998,E,1,08,1.0,43.543,M,-13.987,M,0.0,*53
$GPRMC,010112.00,A,3031.8997719,N,11421.4366828,E,0.03,0.00,010525,0.0,E,A*35
$GPGGA,010112.00,3031.8997719,N,11421.4366828,E,1,08,1.0,44.545,M,-13.987,M,0.0,*56
$GPRMC,010142.00,A,3031.8996478,N,11421.4364860,E,0.02,0.00,010525,0.0,E,A*3A
$GPGGA,010142.00,3031.8996478,N,11421.4364860,E,1,08,1.0,44.568,M,-13.987,M,0.0,*57
$GPRMC,010212.00,A,3031.8996444,N,11421.4365688,E,0.02,0.00,010525,0.0,E,A*3A
$GPGGA,010212.00,3031.8996444,N,11421.4365688,E,1,08,1.0,44.958,M,-13.987,M,0.0,*58
$GPRMC,010242.00,A,3031.8995471,N,11421.4362805,E,0.02,0.00,010525,0.0,E,A*36
$GPGGA,010242.00,3031.8995471,N,11421.4362805,E,1,08,1.0,45.020,M,-13.987,M,0.0,*53
$GPRMC,010312.00,A,3031.8995927,N,11421.4365895,E,0.03,0.00,010525,0.0,E,A*33
$GPGGA,010312.00,3031.8995927,N,11421.4365895,E,1,08,1.0,44.625,M,-13.987,M,0.0,*55
$GPRMC,010342.00,A,3031.8995170,N,11421.4364236,E,0.01,0.00,010525,0.0,E,A*3C
$GPGGA,010342.00,3031.8995170,N,11421.4364236,E,1,08,1.0,44.374,M,-13.987,M,0.0,*59
$GPRMC,010412.00,A,3031.8996408,N,11421.4364608,E,0.02,0.00,010525,0.0,E,A*3D
$GPGGA,010412.00,3031.8996408,N,11421.4364608,E,1,08,1.0,44.641,M,-13.987,M,0.0,*58
$GPRMC,010442.00,A,3031.8996320,N,11421.4364840,E,0.01,0.00,010525,0.0,E,A*34
$GPGGA,010442.00,3031.8996320,N,11421.4364840,E,1,08,1.0,44.631,M,-13.987,M,0.0,*55
$GPRMC,010512.00,A,3031.8997747,N,11421.4364235,E,0.03,0.00,010525,0.0,E,A*3E
$GPGGA,010512.00,3031.8997747,N,11421.4364235,E,1,08,1.0,43.880,M,-13.987,M,0.0,*5E
$GPRMC,010542.00,A,3031.8998439,N,11421.4364680,E,0.01,0.00,010525,0.0,E,A*36
$GPGGA,010542.00,3031.8998439,N,11421.4364680,E,1,08,1.0,43.367,M,-13.987,M,0.0,*56
$GPRMC,010612.00,A,3031.8997484,N,11421.4359551,E,0.03,0.00,010525,0.0,E,A*3A
$GPGGA,010612.00,3031.8997484,N,11421.4359551,E,1,08,1.0,44.563,M,-13.987,M,0.0,*5D
$GPRMC,010642.00,A,3031.8998910,N,11421.4363973,E,0.02,0.00,010525,0.0,E,A*34
$GPGGA,010642.00,3031.8998910,N,11421.4363973,E,1,08,1.0,43.801,M,-13.987,M,0.0,*5C
$GPRMC,010712.00,A,3031.8998367,N,11421.4363602,E,0.03,0.00,010525,0.0,E,A*32
$GPGGA,010712.00,3031.8998367,N,11421.4363602,E,1,08,1.0,43.387,M,-13.987,M,0.0,*5E
$GPRMC,010742.00,A,3031.8997093,N,11421.4363898,E,0.01,0.00,010525,0.0,E,A*3F
$GPGGA,010742.00,3031.8997093,N,11421.4363898,E,1,08,1.0,44.016,M,-13.987,M,0.0,*5D
$GPRMC,010812.00,A,3031.8997517,N,11421.4369394,E,0.02,0.00,010525,0.0,E,A*32
$GPGGA,010812.00,3031.8997517,N,11421.4369394,E,1,08,1.0,43.607,M,-13.987,M,0.0,*52
$GPRMC,010842.00,A,3031.8997510,N,11421.4367725,E,0.01,0.00,010525,0.0,E,A*33
$GPGGA,010842.00,3031.8997510,N,11421.4367725,E,1,08,1.0,43.173,M,-13.987,M,0.0,*54
$GPRMC,010912.00,A,3031.8995333,N,11421.4368641,E,0.01,0.00,010525,0.0,E,A*3E
$GPGGA,010912.00,3031.8995333,N,11421.4368641,E,1,08,1.0,43.756,M,-13.987,M,0.0,*58
$GPRMC,010942.00,A,3031.8998566,N,11421.4370273,E,0.03,0.00,010525,0.0,E,A*3E
$GPGGA,010942.00,3031.8998566,N,11421.4370273,E,1,08,1.0,42.671,M,-13.987,M,0.0,*5F
$GPRMC,011012.00,A,3031.8997181,N,11421.4367070,E,0.06,0.00,010525,0.0,E,A*33
$GPGGA,011012.00,3031.8997181,N,11421.4367070,E,1,08,1.0,43.317,M,-13.987,M,0.0,*53
$GPRMC,011042.00,A,3031.8995980,N,11421.4367969,E,0.01,0.00,010525,0.0,E,A*3B
$GPGGA,011042.00,3031.8995980,N,11421.4367969,E,1,08,1.0,43.596,M,-13.987,M,0.0,*53
$GPRMC,011112.00,A,3031.8995352,N,11421.4367098,E,0.03,0.00,010525,0.0,E,A*3F
$GPGGA,011112.00,3031.8995352,N,11421.4367098,E,1,08,1.0,44.538,M,-13.987,M,0.0,*56
$GPRMC,011142.00,A,3031.8997929,N,11421.4364050,E,0.01,0.00,010525,0.0,E,A*3B
$GPGGA,011142.00,3031.8997929,N,11421.4364050,E,1,08,1.0,42.842,M,-13.987,M,0.0,*56
$GPRMC,011212.00,A,3031.8997219,N,11421.4366166,E,0.01,0.00,010525,0.0,E,A*33
$GPGGA,011212.00,3031.8997219,N,11421.4366166,E,1,08,1.0,43.212,M,-13.987,M,0.0,*50
$GPRMC,011242.00,A,3031.8995763,N,11421.4365470,E,0.02,0.00,010525,0.0,E,A*3E
$GPGGA,011242.00,3031.8995763,N,11421.4365470,E,1,08,1.0,43.862,M,-13.987,M,0.0,*53
$GPRMC,011312.00,A,3031.8996720,N,11421.4364279,E,0.01,0.00,010525,0.0,E,A*33
$GPGGA,011312.00,3031.8996720,N,11421.4364279,E,1,08,1.0,43.355,M,-13.987,M,0.0,*52
$GPRMC,011342.00,A,3031.8999143,N,11421.4364868,E,0.01,0.00,010525,0.0,E,A*30
$GPGGA,011342.00,3031.8999143,N,11421.4364868,E,1,08,1.0,42.487,M,-13.987,M,0.0,*58
$GPRMC,011412.00,A,3031.8997301,N,11421.4366004,E,0.02,0.00,010525,0.0,E,A*3B
$GPGGA,011412.00,3031.8997301,N,11421.4366004,E,1,08,1.0,43.316,M,-13.987,M,0.0,*5E
$GPRMC,011442.00,A,3031.8998090,N,11421.4366260,E,0.03,0.00,010525,0.0,E,A*3B
$GPGGA,011442.00,3031.8998090,N,11421.4366260,E,1,08,1.0,42.841,M,-13.987,M,0.0,*57
$GPRMC,011512.00,A,3031.8997456,N,11421.4366225,E,0.01,0.00,010525,0.0,E,A*3D
$GPGGA,011512.00,3031.8997456,N,11421.4366225,E,1,08,1.0,41.806,M,-13.987,M,0.0,*53
$GPRMC,011542.00,A,3031.8997108,N,11421.4367276,E,0.04,0.00,010525,0.0,E,A*34
$GPGGA,011542.00,3031.8997108,N,11421.4367276,E,1,08,1.0,43.217,M,-13.987,M,0.0,*57
$GPRMC,011612.00,A,3031.8996966,N,11421.4368373,E,0.01,0.00,010525,0.0,E,A*3D
$GPGGA,011612.00,3031.8996966,N,11421.4368373,E,1,08,1.0,43.195,M,-13.987,M,0.0,*52
$GPRMC,011642.00,A,3031.8997691,N,11421.4365149,E,0.02,0.00,010525,0.0,E,A*3B
$GPGGA,011642.00,3031.8997691,N,11421.4365149,E,1,08,1.0,43.218,M,-13.987,M,0.0,*51
$GPRMC,011712.00,A,3031.8996702,N,11421.4367125,E,0.01,0.00,010525,0.0,E,A*3E
$GPGGA,011712.00,3031.8996702,N,11421.4367125,E,1,08,1.0,43.984,M,-13.987,M,0.0,*59
$GPRMC,011742.00,A,3031.8996097,N,11421.4363751,E,0.01,0.00,010525,0.0,E,A*31
$GPGGA,011742.00,3031.8996097,N,11421.4363751,E,1,08,1.0,43.278,M,-13.987,M,0.0,*5E
$GPRMC,011812.00,A,3031.8994471,N,11421.4366243,E,0.02,0.00,010525,0.0,E,A*35
$GPGGA,011812.00,3031.8994471,N,11421.4366243,E,1,08,1.0,43.764,M,-13.987,M,0.0,*51
$GPRMC,011842.00,A,3031.8986569,N,11421.4376701,E,0.03,0.00,010525,0.0,E,A*38
$GPGGA,011842.00,3031.8986569,N,11421.4376701,E,1,09,1.0,49.416,M,-13.987,M,0.0,*50
$GPRMC,011912.00,A,3031.8986715,N,11421.4371840,E,0.04,0.00,010525,0.0,E,A*3F
$GPGGA,011912.00,3031.8986715,N,11421.4371840,E,1,09,1.0,48.653,M,-13.987,M,0.0,*52
$GPRMC,011942.00,A,3031.8988912,N,11421.4373226,E,0.02,0.00,010525,0.0,E,A*33
$GPGGA,011942.00,3031.8988912,N,11421.4373226,E,1,09,1.0,48.689,M,-13.987,M,0.0,*5F
$GPRMC,012012.00,A,3031.8987644,N,11421.4376976,E,0.01,0.00,010525,0.0,E,A*37
$GPGGA,012012.00,3031.8987644,N,11421.4376976,E,1,09,1.0,48.840,M,-13.987,M,0.0,*53
$GPRMC,012042.00,A,3031.8988908,N,11421.4374771,E,0.00,0.00,010525,0.0,E,A*30
$GPGGA,012042.00,3031.8988908,N,11421.4374771,E,1,09,1.0,49.385,M,-13.987,M,0.0,*56
$GPRMC,012112.00,A,3031.8987676,N,11421.4375947,E,0.01,0.00,010525,0.0,E,A*36
$GPGGA,012112.00,3031.8987676,N,11421.4375947,E,1,09,1.0,48.104,M,-13.987,M,0.0,*5B
$GPRMC,012142.00,A,3031.8989340,N,11421.4377590,E,0.01,0.00,010525,0.0,E,A*39
$GPGGA,012142.00,3031.8989340,N,11421.4377590,E,1,09,1.0,48.419,M,-13.987,M,0.0,*5D
$GPRMC,012212.00,A,3031.8988194,N,11421.4375251,E,0.01,0.00,010525,0.0,E,A*3D
$GPGGA,012212.00,3031.8988194,N,11421.4375251,E,1,09,1.0,48.333,M,-13.987,M,0.0,*56
$GPRMC,012242.00,A,3031.8985401,N,11421.4377958,E,0.01,0.00,010525,0.0,E,A*3C
$GPGGA,012242.00,3031.8985401,N,11421.4377958,E,1,09,1.0,48.753,M,-13.987,M,0.0,*55
$GPRMC,012312.00,A,3031.8985905,N,11421.4376308,E,0.01,0.00,010525,0.0,E,A*3F
$GPGGA,012312.00,3031.8985905,N,11421.4376308,E,1,09,1.0,49.539,M,-13.987,M,0.0,*59
$GPRMC,012342.00,A,3031.8988621,N,11421.4375648,E,0.01,0.00,010525,0.0,E,A*3C
$GPGGA,012342.00,3031.8988621,N,11421.4375648,E,1,09,1.0,47.301,M,-13.987,M,0.0,*59
$GPRMC,012412.00,A,3031.8990441,N,11421.4373712,E,0.01,0.00,010525,0.0,E,A*3B
$GPGGA,012412.00,3031.8990441,N,11421.4373712,E,1,09,1.0,46.968,M,-13.987,M,0.0,*5A
$GPRMC,012442.00,A,3031.8990363,N,11421.4374320,E,0.01,0.00,010525,0.0,E,A*3B
$GPGGA,012442.00,3031.8990363,N,11421.4374320,E,1,09,1.0,46.894,M,-13.987,M,0.0,*58
$GPRMC,012512.00,A,3031.8992798,N,11421.4378428,E,0.01,0.00,010525,0.0,E,A*3E
$GPGGA,012512.00,3031.8992798,N,11421.4378428,E,1,09,1.0,47.017,M,-13.987,M,0.0,*5F
$GPRMC,012542.00,A,3031.8989192,N,11421.4372632,E,0.01,0.00,010525,0.0,E,A*3E
$GPGGA,012542.00,3031.8989192,N,11421.4372632,E,1,09,1.0,47.235,M,-13.987,M,0.0,*5D
$GPRMC,012612.00,A,3031.8987157,N,11421.4375312,E,0.01,0.00,010525,0.0,E,A*3F
$GPGGA,012612.00,3031.8987157,N,11421.4375312,E,1,09,1.0,48.596,M,-13.987,M,0.0,*5D
$GPRMC,012642.00,A,3031.8986779,N,11421.4372779,E,0.01,0.00,010525,0.0,E,A*3F
$GPGGA,012642.00,3031.8986779,N,11421.4372779,E,1,09,1.0,48.324,M,-13.987,M,0.0,*52
$GPRMC,012712.00,A,3031.8988306,N,11421.4371538,E,0.01,0.00,010525,0.0,E,A*3D
$GPGGA,012712.00,3031.8988306,N,11421.4371538,E,1,09,1.0,48.102,M,-13.987,M,0.0,*56
$GPRMC,012742.00,A,3031.8990985,N,11421.4369002,E,0.01,0.00,010525,0.0,E,A*35
$GPGGA,012742.00,3031.8990985,N,11421.4369002,E,1,09,1.0,47.228,M,-13.987,M,0.0,*5A
$GPRMC,012812.00,A,3031.8987425,N,11421.4375328,E,0.01,0.00,010525,0.0,E,A*38
$GPGGA,012812.00,3031.8987425,N,11421.4375328,E,1,09,1.0,48.385,M,-13.987,M,0.0,*5E
$GPRMC,012842.00,A,3031.8989649,N,11421.4373735,E,0.01,0.00,010525,0.0,E,A*35
$GPGGA,012842.00,3031.8989649,N,11421.4373735,E,1,09,1.0,47.467,M,-13.987,M,0.0,*57
$GPRMC,012912.00,A,3031.8987142,N,11421.4373077,E,0.01,0.00,010525,0.0,E,A*32
$GPGGA,012912.00,3031.8987142,N,11421.4373077,E,1,09,1.0,48.688,M,-13.987,M,0.0,*5C
$GPRMC,012942.00,A,3031.8987750,N,11421.4371394,E,0.01,0.00,010525,0.0,E,A*3E
$GPGGA,012942.00,3031.8987750,N,11421.4371394,E,1,09,1.0,47.972,M,-13.987,M,0.0,*55
$GPRMC,013012.00,A,3031.8989256,N,11421.4371260,E,0.01,0.00,010525,0.0,E,A*34
$GPGGA,013012.00,3031.8989256,N,11421.4371260,E,1,09,1.0,46.878,M,-13.987,M,0.0,*55
$GPRMC,013042.00,A,3031.8992852,N,11421.4370745,E,0.01,0.00,010525,0.0,E,A*36
$GPGGA,013042.00,3031.8992852,N,11421.4370745,E,1,09,1.0,46.667,M,-13.987,M,0.0,*57
$GPRMC,013112.00,A,3031.8990897,N,11421.4374067,E,0.02,0.00,010525,0.0,E,A*39
$GPGGA,013112.00,3031.8990897,N,11421.4374067,E,1,09,1.0,47.134,M,-13.987,M,0.0,*5B
$GPRMC,013142.00,A,3031.8993993,N,11421.4371329,E,0.01,0.00,010525,0.0,E,A*35
$GPGGA,013142.00,3031.8993993,N,11421.4371329,E,1,09,1.0,45.560,M,-13.987,M,0.0,*53
$GPRMC,013212.00,A,3031.8992788,N,11421.4372591,E,0.02,0.00,010525,0.0,E,A*33
$GPGGA,013212.00,3031.8992788,N,11421.4372591,E,1,09,1.0,45.839,M,-13.987,M,0.0,*57
$GPRMC,013242.00,A,3031.8987426,N,11421.4375612,E,0.01,0.00,010525,0.0,E,A*39
$GPGGA,013242.00,3031.8987426,N,11421.4375612,E,1,09,1.0,47.576,M,-13.987,M,0.0,*5A
$GPRMC,013312.00,A,3031.8991227,N,11421.4374050,E,0.02,0.00,010525,0.0,E,A*3F
$GPGGA,013312.00,3031.8991227,N,11421.4374050,E,1,09,1.0,46.336,M,-13.987,M,0.0,*5C
$GPRMC,013342.00,A,3031.8992466,N,11421.4375146,E,0.01,0.00,010525,0.0,E,A*3E
$GPGGA,013342.00,3031.8992466,N,11421.4375146,E,1,09,1.0,46.619,M,-13.987,M,0.0,*56
$GPRMC,013412.00,A,3031.8989868,N,11421.4372540,E,0.01,0.00,010525,0.0,E,A*31
$GPGGA,013412.00,3031.8989868,N,11421.4372540,E,1,09,1.0,46.711,M,-13.987,M,0.0,*50
$GPRMC,013442.00,A,3031.8992145,N,11421.4370187,E,0.01,0.00,010525,0.0,E,A*35
$GPGGA,013442.00,3031.8992145,N,11421.4370187,E,1,09,1.0,45.757,M,-13.987,M,0.0,*55
$GPRMC,013512.00,A,3031.8990877,N,11421.4373092,E,0.01,0.00,010525,0.0,E,A*3D
$GPGGA,013512.00,3031.8990877,N,11421.4373092,E,1,09,1.0,45.956,M,-13.987,M,0.0,*52
$GPRMC,013542.00,A,3031.8992893,N,11421.4371312,E,0.01,0.00,010525,0.0,E,A*39
$GPGGA,013542.00,3031.8992893,N,11421.4371312,E,1,09,1.0,46.214,M,-13.987,M,0.0,*58
$GPRMC,013612.00,A,3031.8993007,N,11421.4375357,E,0.01,0.00,010525,0.0,E,A*3E
$GPGGA,013612.00,3031.8993007,N,11421.4375357,E,1,09,1.0,45.799,M,-13.987,M,0.0,*5C
$GPRMC,013642.00,A,3031.8991655,N,11421.4377862,E,0.02,0.00,010525,0.0,E,A*34
$GPGGA,013642.00,3031.8991655,N,11421.4377862,E,1,09,1.0,44.828,M,-13.987,M,0.0,*51
$GPRMC,013712.00,A,3031.8990041,N,11421.4376183,E,0.01,0.00,010525,0.0,E,A*36
$GPGGA,013712.00,3031.8990041,N,11421.4376183,E,1,09,1.0,45.098,M,-13.987,M,0.0,*52
$GPRMC,013742.00,A,3031.8989952,N,11421.4375726,E,0.01,0.00,010525,0.0,E,A*3A
$GPGGA,013742.00,3031.8989952,N,11421.4375726,E,1,09,1.0,45.003,M,-13.987,M,0.0,*5C
$GPRMC,013812.00,A,3031.8988753,N,11421.4376490,E,0.01,0.00,010525,0.0,E,A*33
$GPGGA,013812.00,3031.8988753,N,11421.4376490,E,1,09,1.0,44.991,M,-13.987,M,0.0,*56
$GPRMC,013842.00,A,3031.8989930,N,11421.4375720,E,0.01,0.00,010525,0.0,E,A*37
$GPGGA,013842.00,3031.8989930,N,11421.4375720,E,1,09,1.0,45.011,M,-13.987,M,0.0,*52
$GPRMC,013912.00,A,3031.8988335,N,11421.4374915,E,0.02,0.00,010525,0.0,E,A*37
$GPGGA,013912.00,3031.8988335,N,11421.4374915,E,1,09,1.0,44.914,M,-13.987,M,0.0,*5C
$GPRMC,013942.00,A,3031.8989375,N,11421.4374772,E,0.01,0.00,010525,0.0,E,A*3B
$GPGGA,013942.00,3031.8989375,N,11421.4374772,E,1,09,1.0,45.205,M,-13.987,M,0.0,*59
$GPRMC,014012.00,A,3031.8990988,N,11421.4374832,E,0.01,0.00,010525,0.0,E,A*3B
$GPGGA,014012.00,3031.8990988,N,11421.4374832,E,1,09,1.0,44.454,M,-13.987,M,0.0,*5A
$GPRMC,014042.00,A,3031.8989318,N,11421.4373403,E,0.02,0.00,010525,0.0,E,A*3F
$GPGGA,014042.00,3031.8989318,N,11421.4373403,E,1,09,1.0,44.223,M,-13.987,M,0.0,*5B
$GPRMC,014112.00,A,3031.8987402,N,11421.4378410,E,0.01,0.00,010525,0.0,E,A*33
$GPGGA,014112.00,3031.8987402,N,11421.4378410,E,1,09,1.0,44.793,M,-13.987,M,0.0,*5A
$GPRMC,014142.00,A,3031.8990058,N,11421.4375497,E,0.01,0.00,010525,0.0,E,A*39
$GPGGA,014142.00,3031.8990058,N,11421.4375497,E,1,09,1.0,45.066,M,-13.987,M,0.0,*5C
$GPRMC,014212.00,A,3031.8990482,N,11421.4375504,E,0.02,0.00,010525,0.0,E,A*34
$GPGGA,014212.00,3031.8990482,N,11421.4375504,E,1,09,1.0,44.269,M,-13.987,M,0.0,*5E
$GPRMC,014242.00,A,3031.8989889,N,11421.4376014,E,0.01,0.00,010525,0.0,E,A*3A
$GPGGA,014242.00,3031.8989889,N,11421.4376014,E,1,09,1.0,43.640,M,-13.987,M,0.0,*5B
$GPRMC,014312.00,A,3031.8989892,N,11421.4372577,E,0.03,0.00,010525,0.0,E,A*32
$GPGGA,014312.00,3031.8989892,N,11421.4372577,E,1,09,1.0,43.899,M,-13.987,M,0.0,*5B
$GPRMC,014342.00,A,3031.8991621,N,11421.4377684,E,0.01,0.00,010525,0.0,E,A*30
$GPGGA,014342.00,3031.8991621,N,11421.4377684,E,1,09,1.0,43.336,M,-13.987,M,0.0,*55
$GPRMC,014412.00,A,3031.8990878,N,11421.4373398,E,0.01,0.00,010525,0.0,E,A*3D
$GPGGA,014412.00,3031.8990878,N,11421.4373398,E,1,09,1.0,44.394,M,-13.987,M,0.0,*57
$GPRMC,014442.00,A,3031.8989237,N,11421.4376379,E,0.02,0.00,010525,0.0,E,A*38
$GPGGA,014442.00,3031.8989237,N,11421.4376379,E,1,09,1.0,44.449,M,-13.987,M,0.0,*56
$GPRMC,014512.00,A,3031.8991502,N,11421.4377438,E,0.01,0.00,010525,0.0,E,A*34
$GPGGA,014512.00,3031.8991502,N,11421.4377438,E,1,09,1.0,43.813,M,-13.987,M,0.0,*5D
$GPRMC,014542.00,A,3031.8989168,N,11421.4373295,E,0.01,0.00,010525,0.0,E,A*35
$GPGGA,014542.00,3031.8989168,N,11421.4373295,E,1,09,1.0,44.941,M,-13.987,M,0.0,*5D
$GPRMC,014612.00,A,3031.8991245,N,11421.4377677,E,0.01,0.00,010525,0.0,E,A*3A
$GPGGA,014612.00,3031.8991245,N,11421.4377677,E,1,09,1.0,43.060,M,-13.987,M,0.0,*5F
$GPRMC,014642.00,A,3031.8991651,N,11421.4377991,E,0.01,0.00,010525,0.0,E,A*39
$GPGGA,014642.00,3031.8991651,N,11421.4377991,E,1,09,1.0,44.812,M,-13.987,M,0.0,*56
$GPRMC,014712.00,A,3031.8990965,N,11421.4379045,E,0.01,0.00,010525,0.0,E,A*3A
$GPGGA,014712.00,3031.8990965,N,11421.4379045,E,1,09,1.0,44.845,M,-13.987,M,0.0,*57
$GPRMC,014742.00,A,3031.8989295,N,11421.4376472,E,0.01,0.00,010525,0.0,E,A*3C
$GPGGA,014742.00,3031.8989295,N,11421.4376472,E,1,09,1.0,44.946,M,-13.987,M,0.0,*53
$GPRMC,014812.00,A,3031.8989613,N,11421.4377007,E,0.01,0.00,010525,0.0,E,A*3B
$GPGGA,014812.00,3031.8989613,N,11421.4377007,E,1,09,1.0,45.145,M,-13.987,M,0.0,*5E
$GPRMC,014842.00,A,3031.8990797,N,11421.4377368,E,0.01,0.00,010525,0.0,E,A*31
$GPGGA,014842.00,3031.8990797,N,11421.4377368,E,1,09,1.0,45.374,M,-13.987,M,0.0,*54
$GPRMC,014912.00,A,3031.8990367,N,11421.4374667,E,0.02,0.00,010525,0.0,E,A*34
$GPGGA,014912.00,3031.8990367,N,11421.4374667,E,1,09,1.0,44.807,M,-13.987,M,0.0,*5C
$GPRMC,014942.00,A,3031.8989483,N,11421.4375710,E,0.02,0.00,010525,0.0,E,A*34
$GPGGA,014942.00,3031.8989483,N,11421.4375710,E,1,09,1.0,43.856,M,-13.987,M,0.0,*5F
$GPRMC,015012.00,A,3031.8991921,N,11421.4376423,E,0.02,0.00,010525,0.0,E,A*35
$GPGGA,015012.00,3031.8991921,N,11421.4376423,E,1,09,1.0,42.804,M,-13.987,M,0.0,*58
$GPRMC,015042.00,A,3031.8990015,N,11421.4377041,E,0.01,0.00,010525,0.0,E,A*3D
$GPGGA,015042.00,3031.8990015,N,11421.4377041,E,1,09,1.0,44.104,M,-13.987,M,0.0,*5C
$GPRMC,015112.00,A,3031.8993343,N,11421.4373656,E,0.02,0.00,010525,0.0,E,A*3D
$GPGGA,015112.00,3031.8993343,N,11421.4373656,E,1,09,1.0,43.229,M,-13.987,M,0.0,*54
$GPRMC,015142.00,A,3031.8991279,N,11421.4374169,E,0.01,0.00,010525,0.0,E,A*3D
$GPGGA,015142.00,3031.8991279,N,11421.4374169,E,1,09,1.0,43.840,M,-13.987,M,0.0,*52
$GPRMC,015212.00,A,3031.8990364,N,11421.4376078,E,0.02,0.00,010525,0.0,E,A*37
$GPGGA,015212.00,3031.8990364,N,11421.4376078,E,1,09,1.0,45.683,M,-13.987,M,0.0,*5C
$GPRMC,015242.00,A,3031.8988909,N,11421.4373455,E,0.01,0.00,010525,0.0,E,A*37
$GPGGA,015242.00,3031.8988909,N,11421.4373455,E,1,09,1.0,45.825,M,-13.987,M,0.0,*5D
$GPRMC,015312.00,A,3031.8988898,N,11421.4376839,E,0.01,0.00,010525,0.0,E,A*39
$GPGGA,015312.00,3031.8988898,N,11421.4376839,E,1,09,1.0,44.354,M,-13.987,M,0.0,*5F
$GPRMC,015342.00,A,3031.8988597,N,11421.4373410,E,0.02,0.00,010525,0.0,E,A*3F
$GPGGA,015342.00,3031.8988597,N,11421.4373410,E,1,09,1.0,45.111,M,-13.987,M,0.0,*58
$GPRMC,015412.00,A,3031.8988933,N,11421.4379175,E,0.01,0.00,010525,0.0,E,A*30
$GPGGA,015412.00,3031.8988933,N,11421.4379175,E,1,09,1.0,44.262,M,-13.987,M,0.0,*52
$GPRMC,015442.00,A,3031.8991572,N,11421.4377343,E,0.01,0.00,010525,0.0,E,A*3D
$GPGGA,015442.00,3031.8991572,N,11421.4377343,E,1,09,1.0,43.722,M,-13.987,M,0.0,*59
$GPRMC,015512.00,A,3031.8990100,N,11421.4375926,E,0.02,0.00,010525,0.0,E,A*31
$GPGGA,015512.00,3031.8990100,N,11421.4375926,E,1,09,1.0,44.850,M,-13.987,M,0.0,*5B
$GPRMC,015542.00,A,3031.8990925,N,11421.4378146,E,0.02,0.00,010525,0.0,E,A*38
$GPGGA,015542.00,3031.8990925,N,11421.4378146,E,1,09,1.0,44.385,M,-13.987,M,0.0,*51
$GPRMC,015612.00,A,3031.8989152,N,11421.4373794,E,0.01,0.00,010525,0.0,E,A*3F
$GPGGA,015612.00,3031.8989152,N,11421.4373794,E,1,09,1.0,44.979,M,-13.987,M,0.0,*5C
$GPRMC,015642.00,A,3031.8991325,N,11421.4374568,E,0.01,0.00,010525,0.0,E,A*37
$GPGGA,015642.00,3031.8991325,N,11421.4374568,E,1,09,1.0,44.630,M,-13.987,M,0.0,*56
$GPRMC,015712.00,A,3031.8991702,N,11421.4375774,E,0.01,0.00,010525,0.0,E,A*3C
$GPGGA,015712.00,3031.8991702,N,11421.4375774,E,1,09,1.0,43.676,M,-13.987,M,0.0,*58
$GPRMC,015742.00,A,3031.8990315,N,11421.4374867,E,0.01,0.00,010525,0.0,E,A*36
$GPGGA,015742.00,3031.8990315,N,11421.4374867,E,1,09,1.0,43.527,M,-13.987,M,0.0,*55
$GPRMC,015812.00,A,3031.8991414,N,11421.4377360,E,0.02,0.00,010525,0.0,E,A*37
$GPGGA,015812.00,3031.8991414,N,11421.4377360,E,1,09,1.0,42.993,M,-13.987,M,0.0,*55
$GPRMC,015842.00,A,3031.8989977,N,11421.4380981,E,0.01,0.00,010525,0.0,E,A*3D
$GPGGA,015842.00,3031.8989977,N,11421.4380981,E,1,09,1.0,43.359,M,-13.987,M,0.0,*51
$GPRMC,015912.00,A,3031.8989253,N,11421.4379015,E,0.01,0.00,010525,0.0,E,A*36
$GPGGA,015912.00,3031.8989253,N,11421.4379015,E,1,09,1.0,44.021,M,-13.987,M,0.0,*51
$GPRMC,015942.00,A,3031.8989469,N,11421.4374781,E,0.01,0.00,010525,0.0,E,A*3B
$GPGGA,015942.00,3031.8989469,N,11421.4374781,E,1,09,1.0,44.178,M,-13.987,M,0.0,*51
$GPRMC,020012.00,A,3031.8991636,N,11421.4373499,E,0.01,0.00,010525,0.0,E,A*3D
$GPGGA,020012.00,3031.8991636,N,11421.4373499,E,1,09,1.0,44.159,M,-13.987,M,0.0,*54
$GPRMC,020042.00,A,3031.8991327,N,11421.4373099,E,0.01,0.00,010525,0.0,E,A*39
$GPGGA,020042.00,3031.8991327,N,11421.4373099,E,1,09,1.0,45.300,M,-13.987,M,0.0,*5F
$GPRMC,020112.00,A,3031.8993646,N,11421.4373217,E,0.02,0.00,010525,0.0,E,A*3A
$GPGGA,020112.00,3031.8993646,N,11421.4373217,E,1,09,1.0,44.376,M,-13.987,M,0.0,*5F
$GPRMC,020142.00,A,3031.8995909,N,11421.4372971,E,0.01,0.00,010525,0.0,E,A*34
$GPGGA,020142.00,3031.8995909,N,11421.4372971,E,1,09,1.0,42.641,M,-13.987,M,0.0,*55
$GPRMC,020212.00,A,3031.8992494,N,11421.4375390,E,0.01,0.00,010525,0.0,E,A*3E
$GPGGA,020212.00,3031.8992494,N,11421.4375390,E,1,09,1.0,42.952,M,-13.987,M,0.0,*52
$GPRMC,020242.00,A,3031.8993084,N,11421.4375998,E,0.02,0.00,010525,0.0,E,A*3E
$GPGGA,020242.00,3031.8993084,N,11421.4375998,E,1,09,1.0,42.818,M,-13.987,M,0.0,*5E
$GPRMC,020312.00,A,3031.8992909,N,11421.4373749,E,0.03,0.00,010525,0.0,E,A*32
$GPGGA,020312.00,3031.8992909,N,11421.4373749,E,1,09,1.0,43.169,M,-13.987,M,0.0,*5D
$GPRMC,020342.00,A,3031.8993018,N,11421.4375180,E,0.01,0.00,010525,0.0,E,A*38
$GPGGA,020342.00,3031.8993018,N,11421.4375180,E,1,09,1.0,44.436,M,-13.987,M,0.0,*5D
$GPRMC,020412.00,A,3031.8991160,N,11421.4374534,E,0.02,0.00,010525,0.0,E,A*3F
$GPGGA,020412.00,3031.8991160,N,11421.4374534,E,1,09,1.0,45.494,M,-13.987,M,0.0,*50
$GPRMC,020442.00,A,3031.8989453,N,11421.4377801,E,0.01,0.00,010525,0.0,E,A*3D
$GPGGA,020442.00,3031.8989453,N,11421.4377801,E,1,09,1.0,46.121,M,-13.987,M,0.0,*59
$GPRMC,020512.00,A,3031.8991145,N,11421.4375549,E,0.01,0.00,010525,0.0,E,A*31
$GPGGA,020512.00,3031.8991145,N,11421.4375549,E,1,09,1.0,45.119,M,-13.987,M,0.0,*5D
$GPRMC,020542.00,A,3031.8990854,N,11421.4375317,E,0.01,0.00,010525,0.0,E,A*31
$GPGGA,020542.00,3031.8990854,N,11421.4375317,E,1,09,1.0,44.295,M,-13.987,M,0.0,*5B
$GPRMC,020612.00,A,3031.8992792,N,11421.4375801,E,0.03,0.00,010525,0.0,E,A*3E
$GPGGA,020612.00,3031.8992792,N,11421.4375801,E,1,09,1.0,44.221,M,-13.987,M,0.0,*59
$GPRMC,020642.00,A,3031.8991067,N,11421.4372422,E,0.01,0.00,010525,0.0,E,A*3D
$GPGGA,020642.00,3031.8991067,N,11421.4372422,E,1,09,1.0,44.125,M,-13.987,M,0.0,*5F
$GPRMC,020712.00,A,3031.8988957,N,11421.4373963,E,0.01,0.00,010525,0.0,E,A*32
$GPGGA,020712.00,3031.8988957,N,11421.4373963,E,1,09,1.0,45.180,M,-13.987,M,0.0,*5E
$GPRMC,020742.00,A,3031.8985667,N,11421.4373560,E,0.01,0.00,010525,0.0,E,A*39
$GPGGA,020742.00,3031.8985667,N,11421.4373560,E,1,09,1.0,46.877,M,-13.987,M,0.0,*57
$GPRMC,020812.00,A,3031.8988378,N,11421.4372573,E,0.03,0.00,010525,0.0,E,A*34
$GPGGA,020812.00,3031.8988378,N,11421.4372573,E,1,09,1.0,46.474,M,-13.987,M,0.0,*57
$GPRMC,020842.00,A,3031.8989249,N,11421.4373978,E,0.01,0.00,010525,0.0,E,A*37
$GPGGA,020842.00,3031.8989249,N,11421.4373978,E,1,09,1.0,46.686,M,-13.987,M,0.0,*59
$GPRMC,020912.00,A,3031.8987653,N,11421.4373276,E,0.01,0.00,010525,0.0,E,A*37
$GPGGA,020912.00,3031.8987653,N,11421.4373276,E,1,09,1.0,46.972,M,-13.987,M,0.0,*5D
$GPRMC,020942.00,A,3031.8990249,N,11421.4374278,E,0.03,0.00,010525,0.0,E,A*30
$GPGGA,020942.00,3031.8990249,N,11421.4374278,E,1,09,1.0,45.960,M,-13.987,M,0.0,*58
$GPRMC,021012.00,A,3031.8987090,N,11421.4373520,E,0.01,0.00,010525,0.0,E,A*32
$GPGGA,021012.00,3031.8987090,N,11421.4373520,E,1,09,1.0,46.821,M,-13.987,M,0.0,*5F
$GPRMC,021042.00,A,3031.8988293,N,11421.4374235,E,0.02,0.00,010525,0.0,E,A*3E
$GPGGA,021042.00,3031.8988293,N,11421.4374235,E,1,09,1.0,46.668,M,-13.987,M,0.0,*53
$GPRMC,021112.00,A,3031.8988070,N,11421.4374338,E,0.02,0.00,010525,0.0,E,A*39
$GPGGA,021112.00,3031.8988070,N,11421.4374338,E,1,09,1.0,45.125,M,-13.987,M,0.0,*59
$GPRMC,021142.00,A,3031.8990221,N,11421.4374604,E,0.01,0.00,010525,0.0,E,A*3A
$GPGGA,021142.00,3031.8990221,N,11421.4374604,E,1,09,1.0,44.901,M,-13.987,M,0.0,*56
$GPRMC,021212.00,A,3031.8988986,N,11421.4371317,E,0.01,0.00,010525,0.0,E,A*31
$GPGGA,021212.00,3031.8988986,N,11421.4371317,E,1,09,1.0,45.276,M,-13.987,M,0.0,*57
$GPRMC,021242.00,A,3031.8990104,N,11421.4371214,E,0.03,0.00,010525,0.0,E,A*3F
$GPGGA,021242.00,3031.8990104,N,11421.4371214,E,1,09,1.0,44.933,M,-13.987,M,0.0,*50
$GPRMC,021312.00,A,3031.8988566,N,11421.4372930,E,0.02,0.00,010525,0.0,E,A*3D
$GPGGA,021312.00,3031.8988566,N,11421.4372930,E,1,09,1.0,46.048,M,-13.987,M,0.0,*54
$GPRMC,021342.00,A,3031.8989463,N,11421.4371226,E,0.03,0.00,010525,0.0,E,A*33
$GPGGA,021342.00,3031.8989463,N,11421.4371226,E,1,09,1.0,45.588,M,-13.987,M,0.0,*51
$GPRMC,021412.00,A,3031.8986683,N,11421.4373511,E,0.02,0.00,010525,0.0,E,A*32
$GPGGA,021412.00,3031.8986683,N,11421.4373511,E,1,09,1.0,47.792,M,-13.987,M,0.0,*5A
$GPRMC,021442.00,A,3031.8989443,N,11421.4376541,E,0.01,0.00,010525,0.0,E,A*35
$GPGGA,021442.00,3031.8989443,N,11421.4376541,E,1,09,1.0,46.717,M,-13.987,M,0.0,*52
$GPRMC,021512.00,A,3031.8985713,N,11421.4376992,E,0.04,0.00,010525,0.0,E,A*3C
$GPGGA,021512.00,3031.8985713,N,11421.4376992,E,1,09,1.0,47.449,M,-13.987,M,0.0,*57
$GPRMC,021542.00,A,3031.8986950,N,11421.4371621,E,0.01,0.00,010525,0.0,E,A*36
$GPGGA,021542.00,3031.8986950,N,11421.4371621,E,1,09,1.0,48.467,M,-13.987,M,0.0,*5B
$GPRMC,021612.00,A,3031.8995985,N,11421.4374364,E,0.02,0.00,010525,0.0,E,A*38
$GPGGA,021612.00,3031.8995985,N,11421.4374364,E,1,08,1.0,41.494,M,-13.987,M,0.0,*52
$GPRMC,021642.00,A,3031.8989204,N,11421.4375580,E,4.28,6.03,010525,0.0,E,A*36
$GPGGA,021642.00,3031.8989204,N,11421.4375580,E,1,09,1.0,46.380,M,-13.987,M,0.0,*51
$GPRMC,021712.00,A,3031.8992457,N,11421.4375238,E,0.02,6.03,010525,0.0,E,A*30
$GPGGA,021712.00,3031.8992457,N,11421.4375238,E,1,08,1.0,43.534,M,-13.987,M,0.0,*56
$GPRMC,021742.00,A,3031.8994352,N,11421.4374929,E,0.03,6.03,010525,0.0,E,A*3A
$GPGGA,021742.00,3031.8994352,N,11421.4374929,E,1,08,1.0,42.501,M,-13.987,M,0.0,*5A
$GPRMC,021812.00,A,3031.8987657,N,11421.4376231,E,0.04,6.03,010525,0.0,E,A*35
$GPGGA,021812.00,3031.8987657,N,11421.4376231,E,1,09,1.0,47.087,M,-13.987,M,0.0,*5D
$GPRMC,021842.00,A,3031.8987724,N,11421.4372675,E,0.02,6.03,010525,0.0,E,A*33
$GPGGA,021842.00,3031.8987724,N,11421.4372675,E,1,09,1.0,46.845,M,-13.987,M,0.0,*5A
$GPRMC,021912.00,A,3031.8989292,N,11421.4374034,E,0.02,6.03,010525,0.0,E,A*34
$GPGGA,021912.00,3031.8989292,N,11421.4374034,E,1,09,1.0,45.495,M,-13.987,M,0.0,*5F
$GPRMC,021942.00,A,3031.8993853,N,11421.4377949,E,0.02,6.03,010525,0.0,E,A*3D
$GPGGA,021942.00,3031.8993853,N,11421.4377949,E,1,08,1.0,42.418,M,-13.987,M,0.0,*55
$GPRMC,022012.00,A,3031.8989303,N,11421.4373189,E,5.91,181.47,010525,0.0,E,A*36
$GPGGA,022012.00,3031.8989303,N,11421.4373189,E,1,09,1.0,45.693,M,-13.987,M,0.0,*58
$GPRMC,022042.00,A,3031.8983468,N,11421.4383292,E,0.08,181.47,010525,0.0,E,A*30
$GPGGA,022042.00,3031.8983468,N,11421.4383292,E,1,10,1.0,51.116,M,-13.987,M,0.0,*5C
$GPRMC,022112.00,A,3031.8983655,N,11421.4375620,E,0.43,181.47,010525,0.0,E,A*33
$GPGGA,022112.00,3031.8983655,N,11421.4375620,E,1,10,1.0,48.748,M,-13.987,M,0.0,*55
$GPRMC,022142.00,A,3031.8986395,N,11421.4377786,E,0.03,181.47,010525,0.0,E,A*31
$GPGGA,022142.00,3031.8986395,N,11421.4377786,E,1,10,1.0,47.107,M,-13.987,M,0.0,*51
$GPRMC,022212.00,A,3031.8984333,N,11421.4378136,E,0.01,181.47,010525,0.0,E,A*39
$GPGGA,022212.00,3031.8984333,N,11421.4378136,E,1,10,1.0,48.121,M,-13.987,M,0.0,*50
$GPRMC,022242.00,A,3031.8987363,N,11421.4374426,E,0.01,181.47,010525,0.0,E,A*32
$GPGGA,022242.00,3031.8987363,N,11421.4374426,E,1,10,1.0,46.929,M,-13.987,M,0.0,*55
$GPRMC,022312.00,A,3031.8984360,N,11421.4378596,E,0.01,181.47,010525,0.0,E,A*30
$GPGGA,022312.00,3031.8984360,N,11421.4378596,E,1,10,1.0,48.198,M,-13.987,M,0.0,*5B
$GPRMC,022342.00,A,3031.8986528,N,11421.4376510,E,0.01,181.47,010525,0.0,E,A*3D
$GPGGA,022342.00,3031.8986528,N,11421.4376510,E,1,10,1.0,47.508,M,-13.987,M,0.0,*54
$GPRMC,022412.00,A,3031.8986773,N,11421.4375411,E,0.02,181.47,010525,0.0,E,A*33
$GPGGA,022412.00,3031.8986773,N,11421.4375411,E,1,10,1.0,47.569,M,-13.987,M,0.0,*5E
$GPRMC,022442.00,A,3031.8985716,N,11421.4372873,E,0.01,181.47,010525,0.0,E,A*3A
$GPGGA,022442.00,3031.8985716,N,11421.4372873,E,1,10,1.0,48.043,M,-13.987,M,0.0,*56
$GPRMC,022512.00,A,3031.8984822,N,11421.4377752,E,0.01,181.47,010525,0.0,E,A*3E
$GPGGA,022512.00,3031.8984822,N,11421.4377752,E,1,10,1.0,48.214,M,-13.987,M,0.0,*52
$GPRMC,022542.00,A,3031.8985968,N,11421.4376639,E,0.02,181.47,010525,0.0,E,A*3B
$GPGGA,022542.00,3031.8985968,N,11421.4376639,E,1,10,1.0,48.486,M,-13.987,M,0.0,*59
$GPRMC,022612.00,A,3031.8985830,N,11421.4376158,E,0.02,181.47,010525,0.0,E,A*31
$GPGGA,022612.00,3031.8985830,N,11421.4376158,E,1,10,1.0,48.704,M,-13.987,M,0.0,*5A
$GPRMC,022642.00,A,3031.8984423,N,11421.4377531,E,0.01,181.47,010525,0.0,E,A*32
$GPGGA,022642.00,3031.8984423,N,11421.4377531,E,1,10,1.0,48.156,M,-13.987,M,0.0,*5B
$GPRMC,022712.00,A,3031.8985993,N,11421.4374719,E,0.01,181.47,010525,0.0,E,A*3A
$GPGGA,022712.00,3031.8985993,N,11421.4374719,E,1,10,1.0,47.729,M,-13.987,M,0.0,*52
$GPRMC,022742.00,A,3031.8983864,N,11421.4377254,E,0.01,181.47,010525,0.0,E,A*3F
$GPGGA,022742.00,3031.8983864,N,11421.4377254,E,1,10,1.0,49.350,M,-13.987,M,0.0,*53
$GPRMC,022812.00,A,3031.8986729,N,11421.4375342,E,0.01,181.47,010525,0.0,E,A*32
$GPGGA,022812.00,3031.8986729,N,11421.4375342,E,1,10,1.0,48.844,M,-13.987,M,0.0,*51
$GPRMC,022842.00,A,3031.8986803,N,11421.4372882,E,0.01,181.47,010525,0.0,E,A*30
$GPGGA,022842.00,3031.8986803,N,11421.4372882,E,1,10,1.0,48.842,M,-13.987,M,0.0,*55
$GPRMC,022912.00,A,3031.8986792,N,11421.4373287,E,0.02,181.47,010525,0.0,E,A*3E
$GPGGA,022912.00,3031.8986792,N,11421.4373287,E,1,10,1.0,47.072,M,-13.987,M,0.0,*5C
$GPRMC,022942.00,A,3031.8988928,N,11421.4373789,E,0.01,181.47,010525,0.0,E,A*32
$GPGGA,022942.00,3031.8988928,N,11421.4373789,E,1,10,1.0,46.798,M,-13.987,M,0.0,*51
$GPRMC,023012.00,A,3031.8985987,N,11421.4374257,E,0.01,181.47,010525,0.0,E,A*36
$GPGGA,023012.00,3031.8985987,N,11421.4374257,E,1,10,1.0,46.736,M,-13.987,M,0.0,*51
$GPRMC,023042.00,A,3031.8987365,N,11421.4372554,E,0.01,181.47,010525,0.0,E,A*35
$GPGGA,023042.00,3031.8987365,N,11421.4372554,E,1,10,1.0,45.916,M,-13.987,M,0.0,*5D
$GPRMC,023112.00,A,3031.8989218,N,11421.4374014,E,0.02,181.47,010525,0.0,E,A*30
$GPGGA,023112.00,3031.8989218,N,11421.4374014,E,1,10,1.0,45.683,M,-13.987,M,0.0,*58
$GPRMC,023142.00,A,3031.8991387,N,11421.4368805,E,0.02,181.47,010525,0.0,E,A*3E
$GPGGA,023142.00,3031.8991387,N,11421.4368805,E,1,10,1.0,44.274,M,-13.987,M,0.0,*5B
$GPRMC,023212.00,A,3031.8989728,N,11421.4370956,E,0.02,181.47,010525,0.0,E,A*3E
$GPGGA,023212.00,3031.8989728,N,11421.4370956,E,1,10,1.0,45.215,M,-13.987,M,0.0,*5D
$GPRMC,023242.00,A,3031.8991559,N,11421.4370549,E,0.02,181.47,010525,0.0,E,A*34
$GPGGA,023242.00,3031.8991559,N,11421.4370549,E,1,10,1.0,44.292,M,-13.987,M,0.0,*59
$GPRMC,023312.00,A,3031.8988848,N,11421.4371211,E,0.01,181.47,010525,0.0,E,A*3D
$GPGGA,023312.00,3031.8988848,N,11421.4371211,E,1,10,1.0,46.620,M,-13.987,M,0.0,*5C
$GPRMC,023342.00,A,3031.8990471,N,11421.4371289,E,0.03,181.47,010525,0.0,E,A*34
$GPGGA,023342.00,3031.8990471,N,11421.4371289,E,1,10,1.0,45.875,M,-13.987,M,0.0,*5A
$GPRMC,023412.00,A,3031.8992110,N,11421.4370714,E,0.02,181.47,010525,0.0,E,A*37
$GPGGA,023412.00,3031.8992110,N,11421.4370714,E,1,10,1.0,45.066,M,-13.987,M,0.0,*52
$GPRMC,023442.00,A,3031.8991273,N,11421.4371144,E,0.01,181.47,010525,0.0,E,A*36
$GPGGA,023442.00,3031.8991273,N,11421.4371144,E,1,10,1.0,45.780,M,-13.987,M,0.0,*5F
$GPRMC,023512.00,A,3031.8989049,N,11421.4374957,E,0.14,181.47,010525,0.0,E,A*3B
$GPGGA,023512.00,3031.8989049,N,11421.4374957,E,1,10,1.0,46.358,M,-13.987,M,0.0,*54
$GPRMC,023542.00,A,3031.8997543,N,11421.4371286,E,0.01,181.47,010525,0.0,E,A*38
$GPGGA,023542.00,3031.8997543,N,11421.4371286,E,1,09,1.0,42.526,M,-13.987,M,0.0,*50
$GPRMC,023612.00,A,3031.8994965,N,11421.4372275,E,0.02,181.47,010525,0.0,E,A*39
$GPGGA,023612.00,3031.8994965,N,11421.4372275,E,1,09,1.0,42.642,M,-13.987,M,0.0,*53
$GPRMC,023642.00,A,3031.8994879,N,11421.4373090,E,0.01,181.47,010525,0.0,E,A*3B
$GPGGA,023642.00,3031.8994879,N,11421.4373090,E,1,09,1.0,43.284,M,-13.987,M,0.0,*5D
$GPRMC,023712.00,A,3031.8987815,N,11421.4373117,E,0.13,181.47,010525,0.0,E,A*3A
$GPGGA,023712.00,3031.8987815,N,11421.4373117,E,1,10,1.0,47.354,M,-13.987,M,0.0,*5F
$GPRMC,023742.00,A,3031.8990730,N,11421.4372365,E,0.03,181.47,010525,0.0,E,A*36
$GPGGA,023742.00,3031.8990730,N,11421.4372365,E,1,10,1.0,44.463,M,-13.987,M,0.0,*52
$GPRMC,023812.00,A,3031.8990013,N,11421.4369039,E,0.03,181.47,010525,0.0,E,A*3A
$GPGGA,023812.00,3031.8990013,N,11421.4369039,E,1,10,1.0,48.198,M,-13.987,M,0.0,*53
$GPRMC,023842.00,A,3031.8991687,N,11421.4371178,E,0.04,181.47,010525,0.0,E,A*3F
$GPGGA,023842.00,3031.8991687,N,11421.4371178,E,1,10,1.0,45.814,M,-13.987,M,0.0,*51
$GPRMC,023912.00,A,3031.8992550,N,11421.4369224,E,0.03,181.47,010525,0.0,E,A*35
$GPGGA,023912.00,3031.8992550,N,11421.4369224,E,1,10,1.0,46.241,M,-13.987,M,0.0,*55
$GPRMC,023942.00,A,3031.8993099,N,11421.4367318,E,0.03,181.47,010525,0.0,E,A*31
$GPGGA,023942.00,3031.8993099,N,11421.4367318,E,1,10,1.0,46.530,M,-13.987,M,0.0,*50
$GPRMC,024012.00,A,3031.8991429,N,11421.4369797,E,0.02,181.47,010525,0.0,E,A*3B
$GPGGA,024012.00,3031.8991429,N,11421.4369797,E,1,10,1.0,46.569,M,-13.987,M,0.0,*57
$GPRMC,024042.00,A,3031.8991792,N,11421.4366071,E,0.08,181.47,010525,0.0,E,A*37
$GPGGA,024042.00,3031.8991792,N,11421.4366071,E,1,10,1.0,47.191,M,-13.987,M,0.0,*53
$GPRMC,024112.00,A,3031.8998464,N,11421.4361441,E,0.06,181.47,010525,0.0,E,A*3E
$GPGGA,024112.00,3031.8998464,N,11421.4361441,E,1,10,1.0,47.390,M,-13.987,M,0.0,*57
$GPRMC,024142.00,A,3031.8991129,N,11421.4368404,E,0.03,181.47,010525,0.0,E,A*33
$GPGGA,024142.00,3031.8991129,N,11421.4368404,E,1,09,1.0,47.379,M,-13.987,M,0.0,*50
$GPRMC,024212.00,A,3031.8989930,N,11421.4372276,E,0.16,181.47,010525,0.0,E,A*30
$GPGGA,024212.00,3031.8989930,N,11421.4372276,E,1,09,1.0,46.569,M,-13.987,M,0.0,*51
$GPRMC,024242.00,A,3031.8995234,N,11421.4369046,E,0.25,181.47,010525,0.0,E,A*3C
$GPGGA,024242.00,3031.8995234,N,11421.4369046,E,1,09,1.0,43.966,M,-13.987,M,0.0,*5B
$GPRMC,024312.00,A,3031.8995973,N,11421.4369098,E,0.11,181.47,010525,0.0,E,A*34
$GPGGA,024312.00,3031.8995973,N,11421.4369098,E,1,09,1.0,44.284,M,-13.987,M,0.0,*54
$GPRMC,024342.00,A,3031.8995610,N,11421.4369983,E,0.01,181.47,010525,0.0,E,A*39
$GPGGA,024342.00,3031.8995610,N,11421.4369983,E,1,09,1.0,43.973,M,-13.987,M,0.0,*5C
$GPRMC,024412.00,A,3031.8991620,N,11421.4371707,E,0.01,181.47,010525,0.0,E,A*37
$GPGGA,024412.00,3031.8991620,N,11421.4371707,E,1,09,1.0,46.928,M,-13.987,M,0.0,*59
$GPRMC,024442.00,A,3031.8996534,N,11421.4368720,E,0.01,181.47,010525,0.0,E,A*3E
$GPGGA,024442.00,3031.8996534,N,11421.4368720,E,1,09,1.0,44.244,M,-13.987,M,0.0,*53
$GPRMC,024512.00,A,3031.8996500,N,11421.4371243,E,0.01,181.47,010525,0.0,E,A*35
$GPGGA,024512.00,3031.8996500,N,11421.4371243,E,1,09,1.0,44.275,M,-13.987,M,0.0,*5A
$GPRMC,024542.00,A,3031.8992942,N,11421.4372286,E,0.01,181.47,010525,0.0,E,A*34
$GPGGA,024542.00,3031.8992942,N,11421.4372286,E,1,09,1.0,44.471,M,-13.987,M,0.0,*59
$GPRMC,024612.00,A,3031.8994294,N,11421.4369886,E,0.01,181.47,010525,0.0,E,A*34
$GPGGA,024612.00,3031.8994294,N,11421.4369886,E,1,09,1.0,44.392,M,-13.987,M,0.0,*53
$GPRMC,024642.00,A,3031.8997214,N,11421.4366493,E,0.01,181.47,010525,0.0,E,A*3D
$GPGGA,024642.00,3031.8997214,N,11421.4366493,E,1,09,1.0,43.329,M,-13.987,M,0.0,*5D
$GPRMC,024712.00,A,3031.8992816,N,11421.4371586,E,0.01,181.47,010525,0.0,E,A*37
$GPGGA,024712.00,3031.8992816,N,11421.4371586,E,1,09,1.0,45.742,M,-13.987,M,0.0,*58
$GPRMC,024742.00,A,3031.8997985,N,11421.4365429,E,0.01,181.47,010525,0.0,E,A*3D
$GPGGA,024742.00,3031.8997985,N,11421.4365429,E,1,09,1.0,42.952,M,-13.987,M,0.0,*5A
$GPRMC,024812.00,A,3031.8996639,N,11421.4370073,E,0.01,181.47,010525,0.0,E,A*31
$GPGGA,024812.00,3031.8996639,N,11421.4370073,E,1,09,1.0,44.763,M,-13.987,M,0.0,*5C
$GPRMC,024842.00,A,3031.8995922,N,11421.4370571,E,0.01,181.47,010525,0.0,E,A*35
$GPGGA,024842.00,3031.8995922,N,11421.4370571,E,1,09,1.0,44.648,M,-13.987,M,0.0,*50
$GPRMC,024912.00,A,3031.8996203,N,11421.4368258,E,0.01,181.47,010525,0.0,E,A*3F
$GPGGA,024912.00,3031.8996203,N,11421.4368258,E,1,09,1.0,44.011,M,-13.987,M,0.0,*50
$GPRMC,024942.00,A,3031.8997919,N,11421.4367219,E,0.01,181.47,010525,0.0,E,A*31
$GPGGA,024942.00,3031.8997919,N,11421.4367219,E,1,09,1.0,43.982,M,-13.987,M,0.0,*5A
$GPRMC,025012.00,A,3031.8996130,N,11421.4369443,E,0.01,181.47,010525,0.0,E,A*39
$GPGGA,025012.00,3031.8996130,N,11421.4369443,E,1,09,1.0,45.131,M,-13.987,M,0.0,*54
$GPRMC,025042.00,A,3031.8995899,N,11421.4370061,E,0.01,181.47,010525,0.0,E,A*39
$GPGGA,025042.00,3031.8995899,N,11421.4370061,E,1,09,1.0,45.698,M,-13.987,M,0.0,*50
$GPRMC,025112.00,A,3031.8997013,N,11421.4369014,E,0.01,181.47,010525,0.0,E,A*3F
$GPGGA,025112.00,3031.8997013,N,11421.4369014,E,1,09,1.0,44.196,M,-13.987,M,0.0,*5E
$GPRMC,025142.00,A,3031.8996713,N,11421.4371830,E,0.02,181.47,010525,0.0,E,A*38
$GPGGA,025142.00,3031.8996713,N,11421.4371830,E,1,09,1.0,44.483,M,-13.987,M,0.0,*5B
$GPRMC,025212.00,A,3031.8997344,N,11421.4368136,E,0.01,181.47,010525,0.0,E,A*3D
$GPGGA,025212.00,3031.8997344,N,11421.4368136,E,1,09,1.0,43.865,M,-13.987,M,0.0,*5E
$GPRMC,025242.00,A,3031.8994224,N,11421.4373394,E,0.01,181.47,010525,0.0,E,A*3C
$GPGGA,025242.00,3031.8994224,N,11421.4373394,E,1,09,1.0,44.736,M,-13.987,M,0.0,*51
$GPRMC,025312.00,A,3031.9001226,N,11421.4368141,E,0.01,181.47,010525,0.0,E,A*3E
$GPGGA,025312.00,3031.9001226,N,11421.4368141,E,1,09,1.0,43.005,M,-13.987,M,0.0,*53
$GPRMC,025342.00,A,3031.8995519,N,11421.4368984,E,0.01,181.47,010525,0.0,E,A*34
$GPGGA,025342.00,3031.8995519,N,11421.4368984,E,1,09,1.0,44.594,M,-13.987,M,0.0,*53
$GPRMC,025412.00,A,3031.8997222,N,11421.4370382,E,0.01,181.47,010525,0.0,E,A*3E
$GPGGA,025412.00,3031.8997222,N,11421.4370382,E,1,09,1.0,44.941,M,-13.987,M,0.0,*5D
$GPRMC,025442.00,A,3031.8999666,N,11421.4367964,E,0.01,181.47,010525,0.0,E,A*35
$GPGGA,025442.00,3031.8999666,N,11421.4367964,E,1,09,1.0,43.868,M,-13.987,M,0.0,*5B
$GPRMC,025512.00,A,3031.8998255,N,11421.4371003,E,0.02,181.47,010525,0.0,E,A*38
$GPGGA,025512.00,3031.8998255,N,11421.4371003,E,1,09,1.0,43.517,M,-13.987,M,0.0,*50
$GPRMC,025542.00,A,3031.8997649,N,11421.4369980,E,0.01,181.47,010525,0.0,E,A*33
$GPGGA,025542.00,3031.8997649,N,11421.4369980,E,1,09,1.0,43.866,M,-13.987,M,0.0,*53
$GPRMC,025612.00,A,3031.8998868,N,11421.4367889,E,0.01,181.47,010525,0.0,E,A*31
$GPGGA,025612.00,3031.8998868,N,11421.4367889,E,1,09,1.0,43.116,M,-13.987,M,0.0,*5F
$GPRMC,025642.00,A,3031.8999937,N,11421.4368056,E,0.01,181.47,010525,0.0,E,A*3B
$GPGGA,025642.00,3031.8999937,N,11421.4368056,E,1,09,1.0,41.791,M,-13.987,M,0.0,*5E
$GPRMC,025712.00,A,3031.8998128,N,11421.4367139,E,0.02,181.47,010525,0.0,E,A*3C
$GPGGA,025712.00,3031.8998128,N,11421.4367139,E,1,10,1.0,44.455,M,-13.987,M,0.0,*5C
$GPRMC,025742.00,A,3031.8998197,N,11421.4368120,E,0.01,181.47,010525,0.0,E,A*39
$GPGGA,025742.00,3031.8998197,N,11421.4368120,E,1,10,1.0,45.040,M,-13.987,M,0.0,*5B
$GPRMC,025812.00,A,3031.8995510,N,11421.4371785,E,0.01,181.47,010525,0.0,E,A*34
$GPGGA,025812.00,3031.8995510,N,11421.4371785,E,1,09,1.0,44.194,M,-13.987,M,0.0,*57
$GPRMC,025842.00,A,3031.8997427,N,11421.4371604,E,0.01,181.47,010525,0.0,E,A*3E
$GPGGA,025842.00,3031.8997427,N,11421.4371604,E,1,09,1.0,44.116,M,-13.987,M,0.0,*57
$GPRMC,025912.00,A,3031.8998501,N,11421.4365980,E,0.11,181.47,010525,0.0,E,A*37
$GPGGA,025912.00,3031.8998501,N,11421.4365980,E,1,10,1.0,44.720,M,-13.987,M,0.0,*54
$GPRMC,025942.00,A,3031.9000171,N,11421.4365993,E,0.01,181.47,010525,0.0,E,A*3B
$GPGGA,025942.00,3031.9000171,N,11421.4365993,E,1,09,1.0,42.906,M,-13.987,M,0.0,*5D
